"loopIteration","time","axisP[0]","axisP[1]","axisP[2]","axisI[0]","axisI[1]","axisI[2]","axisD[0]","axisD[1]","axisF[0]","axisF[1]","axisF[2]","rcCommand[0]","rcCommand[1]","rcCommand[2]","rcCommand[3]","setpoint[0]","setpoint[1]","setpoint[2]","setpoint[3]","vbatLatest","amperageLatest","baroAlt","rssi","gyroADC[0]","gyroADC[1]","gyroADC[2]","accSmooth[0]","accSmooth[1]","accSmooth[2]","motor[0]","motor[1]","motor[2]","motor[3]","flightModeFlags","stateFlags","failsafePhase","rxSignalReceived","rxFlightChannelsValid","heading[0]","heading[1]","heading[2]","axisSum[0]","axisSum[1]","axisSum[2]","rcCommands[0]","rcCommands[1]","rcCommands[2]","rcCommands[3]","axisError[0]","axisError[1]","axisError[2]","gpsCartesianCoords[0]","gpsCartesianCoords[1]","gpsCartesianCoords[2]","gpsDistance","gpsHomeAzimuth"
0,16915427,0,1,-34,0,0,0,0,0,0,0,-24,1,1,-28,1000,0,0,-15,0,2529,26,65,942,0,0,0,-146,-151,2034,424,158,164,423,NaN,NaN,NaN,NaN,NaN,-0.0741020220824298,0.07146086828048417,6.283185307179586,0,1,-58,0,0,-15,0,0,0,-15,0,0,0,0,0
4,16916435,1,1,-36,0,0,0,0,0,0,0,-22,1,1,-28,1000,0,0,-15,0,2529,26,65,942,0,0,0,-145,-151,2034,420,158,165,423,1,0,0,1,1,-0.0741020220824298,0.07121676425502778,6.283185307179586,1,1,-58,0,0,-15,0,0,0,-15,0,0,0,0,0
8,16917426,0,1,-37,0,0,0,0,0,0,0,-21,1,1,-28,1000,0,0,-15,0,2529,26,65,942,0,0,0,-145,-151,2034,422,158,165,420,1,0,0,1,1,-0.07410202208242982,0.0711353944310499,6.283185307179586,0,1,-58,0,0,-15,0,0,0,-15,0,0,0,0,0
12,16918425,1,1,-38,0,0,0,0,-1,0,0,-20,1,1,-28,1000,0,0,-16,0,2529,26,65,942,0,0,0,-145,-151,2034,420,158,161,421,1,0,0,1,1,-0.0741020220824298,0.07109470922156372,6.283185307179586,1,0,-58,0,0,-16,0,0,0,-16,0,0,0,0,0
16,16919424,0,1,-38,0,0,0,0,0,0,0,-20,1,1,-28,1000,0,0,-16,0,2529,26,65,942,0,0,0,-145,-151,2034,423,158,163,422,1,0,0,1,1,-0.07410202208242982,0.07107029802782808,6.283185307179586,0,1,-58,0,0,-16,0,0,0,-16,0,0,0,0,0
20,16920423,0,1,-39,0,0,0,0,0,0,0,-19,1,1,-28,1000,0,0,-16,0,2529,26,65,942,0,0,0,-146,-151,2034,424,158,161,421,1,0,0,1,1,-0.07410202208242982,0.07113566589064026,6.283185307179586,0,1,-58,0,0,-16,0,0,0,-16,0,0,0,0,0
24,16921423,0,1,-39,0,0,0,0,0,0,0,-20,1,1,-35,1000,0,0,-16,0,2529,26,65,942,0,0,0,-146,-151,2034,433,158,163,428,1,0,0,1,1,-0.07410202208242982,0.0711823567189509,6.283185307179586,0,1,-59,0,0,-16,0,0,0,-16,0,0,0,0,0
28,16922422,0,1,-41,0,0,0,0,1,0,0,-23,1,1,-35,1000,0,0,-17,0,2512,26,65,942,0,0,0,-146,-151,2034,451,158,165,443,1,0,0,1,1,-0.0741020220824298,0.07121737452288343,6.283185307179586,0,2,-64,0,0,-17,0,0,0,-17,0,0,0,0,0
32,16923421,0,1,-43,0,0,0,0,0,0,0,-25,1,1,-35,1000,0,0,-19,0,2512,154,65,942,0,0,0,-145,-151,2034,467,158,165,463,1,0,0,1,1,-0.0741020220824298,0.07119004747966703,6.283185307179586,0,1,-68,0,0,-19,0,0,0,-19,0,0,0,0,0
36,16924421,0,1,-45,0,0,0,0,1,0,0,-26,1,1,-35,1000,0,0,-19,0,2512,154,65,942,0,0,0,-145,-151,2034,488,158,168,479,1,0,0,1,1,-0.07410202208242982,0.07116818585934671,6.283185307179586,0,2,-71,0,0,-19,0,0,0,-19,0,0,0,0,0
40,16925420,0,1,-47,0,0,0,0,1,0,0,-27,1,1,-35,1000,0,0,-20,0,2512,154,65,941,0,0,0,-145,-150,2034,498,158,169,494,1,0,0,1,1,-0.07405720114320101,0.0711505349882127,6.283185307179586,0,2,-74,0,0,-20,0,0,0,-20,0,0,0,0,0
44,16926419,1,1,-49,0,0,0,1,1,0,0,-28,1,1,-35,1000,0,0,-20,0,2512,154,65,941,0,0,1,-145,-150,2034,507,158,172,505,1,0,0,1,1,-0.07401871526542822,0.07113700733924033,6.283167874994671,2,2,-77,0,0,-20,0,0,0,-21,0,0,0,0,0
48,16927419,1,1,-50,0,0,0,1,0,0,0,-28,1,1,-35,1000,0,0,-20,0,2512,154,65,941,0,0,0,-145,-150,2034,510,158,172,513,1,0,0,1,1,-0.07398719892092166,0.07112446918324397,6.283167874969512,2,1,-78,0,0,-20,0,0,0,-20,0,0,0,0,0
52,16928418,1,1,-50,0,0,0,1,0,0,0,-28,1,1,-35,1000,0,0,-20,0,2512,154,65,941,0,0,0,-145,-150,2034,511,158,171,516,1,0,0,1,1,-0.07396018495645673,0.07111372213646831,6.283167874947958,2,1,-78,0,0,-20,0,0,0,-20,0,0,0,0,0
56,16929418,1,1,-50,0,0,0,1,-1,0,0,-24,1,1,-35,1000,0,0,-20,0,2512,154,65,941,0,0,0,-145,-150,2034,494,158,166,499,1,0,0,1,1,-0.07393677291793478,0.071104407999583,6.283167874929288,2,0,-74,0,0,-20,0,0,0,-20,0,0,0,0,0
60,16930417,1,1,-50,0,0,0,0,-2,0,0,-17,1,1,-35,1000,0,0,-20,0,2512,154,65,941,0,0,0,-145,-151,2034,456,158,158,466,1,0,0,1,1,-0.07394723060492968,0.0710960957239651,6.283167874953112,1,-1,-67,0,0,-20,0,0,0,-20,0,0,0,0,0
64,16931416,1,0,-50,0,0,0,0,-2,0,0,-10,1,1,-35,1000,0,0,-20,0,2512,154,65,941,0,0,0,-146,-151,2034,430,163,158,436,1,0,0,1,1,-0.07395645789411529,0.07111784079465941,6.28316787493803,1,-2,-60,0,0,-20,0,0,0,-20,0,0,0,0,0
68,16932415,0,0,-49,0,0,0,-1,-2,0,0,-6,1,1,-35,1000,0,0,-20,0,2512,154,65,941,0,0,-1,-146,-151,2034,410,166,158,416,1,0,0,1,1,-0.07396582874551845,0.07113595377258335,6.283185307179586,-1,-2,-55,0,0,-20,0,0,0,-19,0,0,0,0,0
72,16933415,0,0,-49,0,0,0,-1,-1,0,0,-3,1,1,-35,1000,0,0,-20,0,2512,154,65,941,0,0,0,-146,-151,2034,401,164,158,398,1,0,0,1,1,-0.07397310482342553,0.07115331262255437,6.283185307179586,-1,-1,-52,0,0,-20,0,0,0,-20,0,0,0,0,0
76,16934414,0,1,-49,0,0,0,-1,0,0,0,-1,1,1,-35,1000,0,0,-20,0,2512,154,65,941,0,0,0,-146,-151,2034,396,158,159,386,1,0,0,1,1,-0.0739796532293278,0.07116893539439566,6.283185307179586,-1,1,-50,0,0,-20,0,0,0,-20,0,0,0,0,0
80,16935413,0,1,-50,0,0,0,-1,2,0,0,-1,1,1,-35,1000,0,0,-20,0,2512,154,65,941,0,0,0,-146,-151,2034,400,158,167,385,1,0,0,1,1,-0.07398557791728184,0.07118307010687407,6.283185307179586,-1,3,-51,0,0,-20,0,0,0,-20,0,0,0,0,0
84,16936414,0,1,-50,0,0,0,-1,3,0,0,0,1,1,-35,1000,0,0,-20,0,2512,154,65,941,0,0,0,-146,-151,2034,406,158,174,385,1,0,0,1,1,-0.07399096394044846,0.07119591968311696,6.283185307179586,-1,4,-50,0,0,-20,0,0,0,-20,0,0,0,0,0
88,16937412,0,2,-51,0,0,0,0,3,0,0,-1,1,1,-41,1000,0,0,-21,0,2512,154,65,941,0,0,0,-146,-151,2035,413,158,180,398,1,0,0,1,1,-0.07399427660872453,0.07120611530466434,6.283185307179586,0,5,-52,0,0,-21,0,0,0,-21,0,0,0,0,0
92,16938411,1,2,-52,0,0,0,1,2,0,0,-3,1,1,-41,1000,0,0,-22,0,2512,154,65,941,0,0,1,-146,-150,2035,428,158,182,417,1,0,0,1,1,-0.0739753606761475,0.07121680422134755,6.283167874839467,2,4,-55,0,0,-22,0,0,0,-23,0,0,0,0,0
96,16939411,1,1,-54,0,0,0,2,1,0,0,-5,1,1,-41,1000,0,0,-22,0,2512,154,65,941,0,0,1,-146,-150,2035,435,158,178,437,1,0,0,1,1,-0.07395790881550918,0.07122668900861612,6.283150424983059,3,2,-59,0,0,-22,0,0,0,-23,0,0,0,0,0
100,16940411,1,1,-56,0,0,0,2,-1,0,0,-6,1,1,-41,1000,0,0,-23,0,2512,154,65,941,0,0,0,-146,-150,2035,440,158,170,450,1,0,0,1,1,-0.07394294623795661,0.07123462234779258,6.283150424924647,3,0,-62,0,0,-23,0,0,0,-23,0,0,0,0,0
104,16941409,1,1,-57,0,0,0,1,-2,0,0,-7,1,1,-41,1000,0,0,-23,0,2512,154,65,941,0,0,0,-146,-150,2035,441,158,161,456,1,0,0,1,1,-0.0739290925885026,0.07124196769773071,6.283150424870567,2,-1,-64,0,0,-23,0,0,0,-23,0,0,0,0,0
108,16942409,1,0,-58,0,0,0,1,-3,0,0,-7,1,1,-41,1000,0,0,-24,0,2525,154,65,941,0,0,0,-146,-151,2035,445,161,158,461,1,0,0,1,1,-0.07393408537552398,0.07124869417877078,6.283150424866722,2,-3,-65,0,0,-24,0,0,0,-24,0,0,0,0,0
112,16943408,1,0,-58,0,0,0,0,-2,0,0,-7,1,1,-41,1000,0,0,-24,0,2525,-2,65,941,0,0,0,-146,-151,2035,453,165,158,461,1,0,0,1,1,-0.0739387336381666,0.07125495649548347,6.283150424863143,1,-2,-65,0,0,-24,0,0,0,-24,0,0,0,0,0
116,16944407,0,0,-58,0,0,0,-1,-2,0,0,-7,1,1,-41,1000,0,0,-24,0,2525,-2,65,941,0,0,0,-146,-151,2035,459,169,158,462,1,0,0,1,1,-0.07394307184184022,0.07126080108249296,6.283150424859802,-1,-2,-65,0,0,-24,0,0,0,-24,0,0,0,0,0
120,16945407,0,1,-59,0,0,0,-2,-1,0,0,-7,1,1,-41,1000,0,0,-24,0,2525,-2,65,941,0,0,0,-146,-151,2034,460,166,158,453,1,0,0,1,1,-0.07394832775923536,0.07126741671113825,6.2831504248569106,-2,0,-66,0,0,-24,0,0,0,-24,0,0,0,0,0
124,16946406,0,1,-59,0,0,0,-1,0,0,0,-5,1,1,-41,1000,0,0,-24,0,2525,-2,65,941,0,0,0,-145,-151,2034,451,158,158,442,1,0,0,1,1,-0.07395325514962679,0.07125797988072305,6.283150424893142,-1,1,-64,0,0,-24,0,0,0,-24,0,0,0,0,0
128,16947405,0,1,-59,0,0,0,-1,2,0,0,-3,1,1,-41,1000,0,0,-24,0,2525,-2,57,941,0,0,0,-145,-151,2034,453,158,169,437,1,0,0,1,1,-0.07395788387571786,0.07124911503249888,6.283150424927175,-1,3,-62,0,0,-24,0,0,0,-24,0,0,0,0,0
132,16948405,0,1,-60,0,0,0,0,2,0,0,-2,1,1,-41,1000,0,0,-24,0,2525,-2,57,941,0,0,0,-146,-151,2034,451,158,174,435,1,0,0,1,1,-0.07396224028733969,0.07125551514656264,6.283150424922502,0,3,-62,0,0,-24,0,0,0,-24,0,0,0,0,0
136,16949404,0,1,-60,0,0,0,0,2,0,0,-1,1,1,-41,1000,0,0,-24,0,2525,-2,57,941,0,0,0,-146,-151,2034,446,158,176,437,1,0,0,1,1,-0.07396634772323639,0.07126154947752623,6.2831504249180945,0,3,-61,0,0,-24,0,0,0,-24,0,0,0,0,0
140,16950404,1,1,-60,0,0,0,1,1,0,0,0,1,1,-41,1000,0,0,-24,0,2525,-2,57,941,0,0,0,-146,-151,2034,440,158,174,438,1,0,0,1,1,-0.07397022692922804,0.07126724850467932,6.283150424913932,2,2,-60,0,0,-24,0,0,0,-24,0,0,0,0,0
144,16951402,1,1,-60,0,0,0,1,0,0,0,0,1,1,-41,1000,0,0,-24,0,2525,-2,57,941,0,0,0,-146,-151,2034,435,158,172,439,1,0,0,1,1,-0.07397389640857047,0.07127263941253081,6.283150424909993,2,1,-60,0,0,-24,0,0,0,-24,0,0,0,0,0
148,16952402,1,1,-60,0,0,0,1,-1,0,0,0,1,1,-41,1000,0,0,-24,0,2525,-2,57,941,0,0,0,-146,-151,2035,430,158,166,437,1,0,0,1,1,-0.07397638953331023,0.07127680414757664,6.283150424906067,2,0,-60,0,0,-24,0,0,0,-24,0,0,0,0,0
152,16953401,1,1,-60,0,0,0,1,-1,0,0,0,1,1,-41,1000,0,0,-24,0,2525,-2,57,941,0,0,0,-145,-151,2034,427,158,167,439,1,0,0,1,1,-0.07397971349902425,0.07126876786252784,6.283150424934673,2,0,-60,0,0,-24,0,0,0,-24,0,0,0,0,0
156,16954401,1,1,-60,0,0,0,2,0,0,0,0,1,1,-41,1000,0,0,-24,0,2525,-2,57,941,0,0,0,-145,-151,2034,433,158,175,441,1,0,0,1,1,-0.07398287122725017,0.07126113347724271,6.283150424961847,3,1,-60,0,0,-24,0,0,0,-24,0,0,0,0,0
160,16955400,1,1,-60,0,0,0,1,0,0,0,0,1,1,-41,1000,0,0,-24,0,2525,-2,57,941,0,0,0,-146,-151,2034,435,158,175,438,1,0,0,1,1,-0.0739858748804425,0.07126616863961703,6.283150424957076,2,1,-60,0,0,-24,0,0,0,-24,0,0,0,0,0
164,16956400,1,1,-60,0,0,0,0,1,0,0,0,1,1,-41,1000,0,0,-24,0,2525,-2,57,941,0,0,0,-146,-151,2034,439,158,174,433,1,0,0,1,1,-0.07398873546284446,0.07127096396186611,6.283150424952531,1,2,-60,0,0,-24,0,0,0,-24,0,0,0,0,0
168,16957398,0,1,-59,0,0,0,-2,0,0,0,0,1,1,-41,1000,0,0,-24,0,2525,-2,57,941,0,0,0,-146,-151,2033,434,160,158,424,1,0,0,1,1,-0.07399233558663074,0.07127637240282499,6.283150424948372,-2,1,-59,0,0,-24,0,0,0,-24,0,0,0,0,0
172,16958398,0,1,-59,0,0,0,-3,-1,0,0,0,1,1,-41,1000,0,0,-24,0,2525,-2,57,941,0,0,0,-146,-152,2033,439,173,158,431,1,0,0,1,1,-0.07400728630310757,0.07128147439884479,6.283150424974329,-3,0,-59,0,0,-24,0,0,0,-24,0,0,0,0,0
176,16959397,0,0,-59,0,0,0,-2,-2,0,0,0,1,1,-41,1000,0,0,-24,0,2525,-2,57,941,0,0,0,-146,-152,2033,435,175,158,434,1,0,0,1,1,-0.07402157260581703,0.07128634964251183,6.283150424999139,-2,-2,-59,0,0,-24,0,0,0,-24,0,0,0,0,0
180,16960397,0,1,-59,0,0,0,-1,-1,0,0,0,1,1,-41,1000,0,0,-24,0,2525,-2,57,941,0,0,0,-145,-150,2033,431,163,158,430,1,0,0,1,1,-0.07401317387707063,0.07128012302355569,6.283150424992923,-1,0,-59,0,0,-24,0,0,0,-24,0,0,0,0,0
184,16961396,1,1,-60,0,0,0,1,0,0,0,0,1,1,-41,1000,0,0,-24,0,2525,-2,57,941,0,0,0,-146,-151,2034,435,158,170,436,1,0,0,1,1,-0.07401513748404502,0.07128411767564252,6.283150424988053,2,1,-60,0,0,-24,0,0,0,-24,0,0,0,0,0
188,16962395,2,1,-60,0,0,0,4,1,0,0,0,1,1,-41,1000,0,0,-24,0,2523,-2,57,941,0,0,0,-146,-151,2034,437,158,194,455,1,0,0,1,1,-0.07401701923693539,0.07128794580596849,6.2831504249833845,6,2,-60,0,0,-24,0,0,0,-24,0,0,0,0,0
192,16963395,1,1,-60,0,0,0,3,0,0,0,0,1,1,-41,1000,0,0,-24,0,2523,134,57,941,0,0,0,-146,-152,2033,431,158,182,450,1,0,0,1,1,-0.07402997627471532,0.07129230056552631,6.283150425006056,4,1,-60,0,0,-24,0,0,0,-24,0,0,0,0,0
196,16964395,1,1,-60,0,0,0,1,0,0,0,0,1,1,-41,1000,0,0,-24,0,2523,134,57,941,0,0,0,-146,-151,2033,431,158,169,438,1,0,0,1,1,-0.07403223195944078,0.0712965347810672,6.283150425001344,2,1,-60,0,0,-24,0,0,0,-24,0,0,0,0,0
200,16965393,2,2,-60,0,0,0,1,2,0,0,0,1,1,-41,1000,0,0,-24,0,2523,134,57,941,0,0,0,-146,-151,2035,445,158,188,441,1,0,0,1,1,-0.07403291704534559,0.07129918296428643,6.28315042499652,3,4,-60,0,0,-24,0,0,0,-24,0,0,0,0,0
204,16966392,1,1,-60,0,0,0,0,1,0,0,0,1,1,-41,1000,0,0,-24,0,2523,134,57,941,0,0,0,-146,-152,2034,437,158,172,433,1,0,0,1,1,-0.07404411055097289,0.07130237440836061,6.283150425017532,1,2,-60,0,0,-24,0,0,0,-24,0,0,0,0,0
208,16967392,0,1,-60,0,0,0,-3,-2,0,0,0,1,1,-41,1000,0,0,-24,0,2523,134,57,941,0,0,0,-146,-152,2034,441,176,158,433,1,0,0,1,1,-0.07405488139956282,0.07130544533650296,6.283150425037754,-3,-1,-60,0,0,-24,0,0,0,-24,0,0,0,0,0
212,16968400,0,1,-59,0,0,0,-3,0,0,0,0,1,1,-41,1000,0,0,-24,0,2523,134,57,941,0,0,0,-145,-153,2035,440,167,158,424,1,0,0,1,1,-0.0740740107080684,0.07129824289409463,6.283150425105211,-3,1,-59,0,0,-24,0,0,0,-24,0,0,0,0,0
216,16969390,0,1,-59,0,0,0,-2,-1,0,0,0,1,1,-41,1000,0,0,-24,0,2523,134,57,940,0,0,0,-145,-154,2036,434,167,158,427,1,0,0,1,1,-0.07410104859256728,0.07129059320883412,6.283150425194272,-2,0,-59,0,0,-24,0,0,0,-24,0,0,0,0,0
220,16970391,0,0,-59,0,0,0,-2,-3,0,0,0,1,1,-41,1000,0,0,-24,0,2523,134,57,940,0,0,-1,-147,-152,2036,435,180,158,437,1,0,0,1,1,-0.07411006749096137,0.07130027422330663,6.283167892359518,-2,-3,-59,0,0,-24,0,0,0,-23,0,0,0,0,0
224,16971389,0,1,-59,0,0,0,-1,1,0,0,0,1,1,-41,1000,0,0,-24,0,2523,134,57,940,0,0,0,-144,-153,2037,432,158,161,421,1,0,0,1,1,-0.07412588505341326,0.07128329066428789,6.283167892401092,-1,2,-59,0,0,-24,0,0,0,-24,0,0,0,0,0
228,16972389,0,1,-59,0,0,0,-1,1,0,0,0,1,1,-41,1000,0,0,-24,0,2523,134,57,940,0,0,0,-144,-152,2037,436,158,160,420,1,0,0,1,1,-0.074132320733284,0.07126694059373473,6.283167892429745,-1,2,-59,0,0,-24,0,0,0,-24,0,0,0,0,0
232,16973388,1,2,-60,0,0,0,2,2,0,0,0,1,1,-41,1000,0,0,-24,0,2523,134,57,940,0,0,0,-143,-153,2037,445,158,187,439,1,0,0,1,1,-0.07414723017367814,0.07124242791417949,6.283167892479499,3,4,-60,0,0,-24,0,0,0,-24,0,0,0,0,0
236,16974387,2,1,-60,0,0,0,6,0,0,0,0,1,1,-41,1000,0,0,-24,0,2523,134,57,940,-1,0,1,-143,-153,2037,437,158,199,464,1,0,0,1,1,-0.0741775527289803,0.07122000331492304,6.283150460444725,8,1,-60,0,0,-24,0,1,0,-25,0,0,0,0,0
240,16975386,1,1,-60,0,0,0,2,1,0,0,0,1,1,-41,1000,0,0,-24,0,2523,134,57,940,0,0,0,-143,-155,2037,440,158,179,442,1,0,0,1,1,-0.07420805755118177,0.07119697718413942,6.283150460580961,3,2,-60,0,0,-24,0,0,0,-24,0,0,0,0,0
244,16976391,0,1,-60,0,0,0,-1,-1,0,0,0,1,1,-41,1000,0,0,-24,0,2523,134,57,940,0,0,0,-142,-154,2037,436,164,158,434,1,0,0,1,1,-0.07422928460631056,0.07116646681209349,6.28315046071176,-1,0,-60,0,0,-24,0,0,0,-24,0,0,0,0,0
248,16977385,0,0,-59,0,0,0,-1,-3,0,0,4,1,1,-33,1000,0,0,-23,0,2523,134,57,940,0,0,0,-143,-155,2037,410,170,158,421,1,0,0,1,1,-0.07425800260749169,0.07114503153071972,6.283150460839425,-1,-3,-55,0,0,-23,0,0,0,-23,0,0,0,0,0
252,16978384,1,1,-58,0,0,0,-1,-1,0,0,13,1,1,-33,1000,0,0,-22,0,2523,134,57,940,0,0,0,-143,-156,2038,363,159,158,363,1,0,0,1,1,-0.07429326741783437,0.0711236548183168,6.283150460983935,0,0,-45,0,0,-22,0,0,0,-22,0,0,0,0,0
256,16979384,0,1,-55,0,0,0,-1,0,0,0,22,1,1,-33,1000,0,0,-21,0,2523,134,57,940,0,0,0,-140,-156,2036,321,158,163,314,1,0,0,1,1,-0.07432862471440604,0.07108033273688404,6.283150461183165,-1,1,-33,0,0,-21,0,0,0,-21,0,0,0,0,0
260,16980385,1,1,-53,0,0,0,1,0,0,0,27,1,1,-33,1000,0,0,-20,0,2523,134,57,940,0,0,0,-141,-156,2036,284,158,174,290,1,0,0,1,1,-0.07436290858826974,0.0710461214904971,6.283150461356994,2,1,-26,0,0,-20,0,0,0,-20,0,0,0,0,0
264,16981382,1,1,-51,0,0,0,1,0,0,0,31,1,1,-33,1000,0,0,-19,0,2523,134,57,940,0,0,0,-143,-156,2036,255,158,168,261,1,0,0,1,1,-0.07439616714553778,0.07102830472834,6.283150461487521,2,1,-20,0,0,-19,0,0,0,-19,0,0,0,0,0
268,16982382,0,1,-50,0,0,0,-3,0,0,0,33,1,1,-33,1000,0,0,-19,0,2528,134,57,940,0,0,0,-143,-156,2034,252,171,158,237,1,0,0,1,1,-0.07442957850500033,0.07101208807134027,6.2831504616145075,-3,1,-17,0,0,-19,0,0,0,-19,0,0,0,0,0
272,16983381,0,1,-48,0,0,0,-3,0,0,0,34,1,1,-33,1000,0,0,-19,0,2528,50,57,940,0,0,0,-141,-157,2035,240,165,158,224,1,0,0,1,1,-0.07446895382501698,0.07098082164814862,6.283150461794313,-3,1,-14,0,0,-19,0,0,0,-19,0,0,0,0,0
276,16984380,-1,1,-48,0,0,0,-3,1,0,0,34,1,1,-33,1000,0,0,-19,0,2528,50,57,940,1,0,0,-143,-157,2035,241,161,158,214,1,0,0,1,1,-0.07449003039412336,0.07096519856788465,6.283150461933152,-4,2,-14,0,0,-19,0,-1,0,-19,0,0,0,0,0
280,16985380,1,1,-48,0,0,0,2,2,0,0,30,1,1,-33,1000,0,0,-19,0,2528,50,57,940,0,0,0,-143,-157,2035,259,158,190,259,1,0,0,1,1,-0.07452745631212307,0.07095001610339391,6.283150462068116,3,3,-18,0,0,-19,0,0,0,-19,0,0,0,0,0
284,16986379,1,1,-48,0,0,0,3,1,0,0,21,1,1,-33,1000,0,0,-19,0,2528,50,57,940,0,0,1,-142,-155,2035,297,158,189,301,1,0,0,1,1,-0.07454822857778172,0.07092942975980124,6.283133030939055,4,2,-27,0,0,-19,0,0,0,-20,0,0,0,0,0
288,16987378,1,1,-48,0,0,0,3,0,0,0,13,1,1,-33,1000,0,0,-19,0,2528,50,57,940,0,0,0,-145,-156,2034,325,158,180,340,1,0,0,1,1,-0.07457726816916702,0.07092987624344224,6.283133031050814,4,1,-35,0,0,-19,0,0,0,-19,0,0,0,0,0
292,16988388,1,1,-48,0,0,0,1,-2,0,0,7,1,1,-33,1000,0,0,-19,0,2528,50,57,940,0,0,0,-144,-157,2036,338,159,158,353,1,0,0,1,1,-0.07461148781273876,0.070922283285108,6.283133031212717,2,-1,-41,0,0,-19,0,0,0,-19,0,0,0,0,0
296,16989377,0,0,-47,0,0,0,-1,-3,0,0,4,1,1,-33,1000,0,0,-19,0,2528,50,57,940,0,0,0,-143,-155,2035,362,175,158,368,1,0,0,1,1,-0.07463145825232868,0.07090854506917466,6.283133031341787,-1,-3,-43,0,0,-19,0,0,0,-19,0,0,0,0,0
300,16990376,1,1,-47,0,0,0,-2,-2,0,0,2,1,1,-33,1000,0,0,-19,0,2528,50,57,940,0,0,0,-143,-157,2035,375,173,158,374,1,0,0,1,1,-0.07466458384388865,0.07089509659458555,6.283133031521237,-1,-1,-45,0,0,-19,0,0,0,-19,0,0,0,0,0
304,16991375,0,1,-47,0,0,0,-3,2,0,0,1,1,1,-33,1000,0,0,-19,0,2528,50,57,940,0,0,0,-144,-158,2035,383,158,160,355,1,0,0,1,1,-0.07470360494847647,0.07088870445914722,6.283133031697611,-3,3,-46,0,0,-19,0,0,0,-19,0,0,0,0,0
308,16992375,0,2,-47,0,0,0,-4,3,0,0,0,1,1,-33,1000,0,0,-19,0,2528,50,57,940,0,0,0,-144,-156,2034,393,158,163,356,1,0,0,1,1,-0.07472877135749999,0.07088301866938927,6.283133031817206,-4,5,-47,0,0,-19,0,0,0,-19,0,0,0,0,0
312,16993374,0,1,-47,0,0,0,1,1,0,0,0,1,1,-33,1000,0,0,-19,0,2528,50,57,940,0,0,0,-145,-157,2033,383,158,174,377,1,0,0,1,1,-0.07476039102996439,0.07088449043353724,6.283133031935537,1,2,-47,0,0,-19,0,0,0,-19,0,0,0,0,0
316,16994374,0,1,-48,0,0,0,-1,1,0,0,0,1,1,-33,1000,0,0,-19,0,2528,50,57,940,0,0,0,-148,-154,2034,384,158,161,372,1,0,0,1,1,-0.07477117129747607,0.070905084392295,6.2831330319013095,-1,2,-48,0,0,-19,0,0,0,-19,0,0,0,0,0
320,16995373,1,0,-47,0,0,0,1,-3,0,0,0,1,1,-33,1000,0,0,-19,0,2528,50,57,940,0,0,0,-148,-156,2034,368,162,158,386,1,0,0,1,1,-0.07479457444967202,0.07092510091256195,6.283133031918657,2,-3,-47,0,0,-19,0,0,0,-19,0,0,0,0,0
324,16996372,0,1,-48,0,0,0,2,1,0,0,0,1,1,-33,1000,0,0,-19,0,2528,50,57,940,0,0,0,-150,-155,2034,385,158,175,383,1,0,0,1,1,-0.0748110347590964,0.0709573763463678,6.283133031863264,2,2,-48,0,0,-19,0,0,0,-19,0,0,0,0,0
328,16997371,0,0,-48,0,0,0,0,-1,0,0,0,1,1,-33,1000,0,0,-19,0,2528,50,57,940,0,0,0,-152,-153,2032,375,158,159,381,1,0,0,1,1,-0.07481544297842742,0.07100240236917069,6.283133031713198,0,-1,-48,0,0,-19,0,0,0,-19,0,0,0,0,0
332,16998371,1,1,-47,0,0,0,1,-2,0,0,0,1,1,-33,1000,0,0,-19,0,2528,50,57,940,0,0,0,-151,-153,2032,372,158,160,381,1,0,0,1,1,-0.07481974621248777,0.07104013987304758,6.283133031589727,2,-1,-47,0,0,-19,0,0,0,-19,0,0,0,0,0
336,16999370,0,2,-47,0,0,0,1,3,0,0,0,1,1,-33,1000,0,0,-19,0,2528,50,57,940,0,0,0,-151,-153,2031,394,158,182,379,1,0,0,1,1,-0.0748244100710099,0.07107742544242424,6.283133031469276,1,5,-47,0,0,-19,0,0,0,-19,0,0,0,0,0
340,17000369,1,2,-47,0,0,0,2,3,0,0,0,1,1,-33,1000,0,0,-19,0,2528,50,57,940,0,0,0,-151,-154,2029,397,158,195,390,1,0,0,1,1,-0.07483597464948197,0.07111467544090615,6.283133031375936,3,5,-47,0,0,-19,0,0,0,-19,0,0,0,0,0
344,17001369,1,1,-47,0,0,0,1,2,0,0,0,1,1,-32,1000,0,0,-19,0,2528,50,57,940,0,0,0,-154,-153,2027,388,158,185,381,1,0,0,1,1,-0.07484214770482127,0.0711700072791961,6.2831330311940174,2,3,-47,0,0,-19,0,0,0,-19,0,0,0,0,0
348,17002368,0,0,-46,0,0,0,-1,-4,0,0,0,1,1,-32,1000,0,0,-19,0,2524,50,57,940,0,0,-1,-154,-151,2026,374,181,158,384,1,0,0,1,1,-0.07483791870652787,0.07122328294205718,6.283150462199662,-1,-4,-46,0,0,-19,0,0,0,-18,0,0,0,0,0
352,17003367,-1,0,-46,0,0,0,-6,-4,0,0,1,1,1,-32,1000,0,0,-18,0,2524,142,57,940,1,0,1,-151,-152,2028,397,205,158,383,1,0,0,1,1,-0.07481914089125064,0.07125938133829675,6.283133030816123,-7,-4,-45,0,0,-18,0,-1,0,-19,0,0,0,0,0
356,17004377,0,1,-46,0,0,0,-1,-2,0,0,1,1,1,-32,1000,0,0,-18,0,2524,142,57,940,0,0,-1,-152,-153,2027,372,167,158,371,1,0,0,1,1,-0.07482656385365889,0.07129831723598459,6.2831506539655,-1,-1,-45,0,0,-18,0,0,0,-17,0,0,0,0,0
360,17005366,1,1,-46,0,0,0,1,2,0,0,1,1,1,-32,1000,0,0,-18,0,2524,142,57,940,0,0,0,-153,-152,2026,381,158,184,374,1,0,0,1,1,-0.07482724540550263,0.0713439014500645,6.283150653854422,2,3,-45,0,0,-18,0,0,0,-18,0,0,0,0,0
364,17006365,0,1,-46,0,0,0,2,2,0,0,1,1,1,-32,1000,0,0,-18,0,2524,142,57,940,0,0,0,-154,-151,2027,375,158,179,373,1,0,0,1,1,-0.07482175576441447,0.07139383367877897,6.283150653716459,2,3,-45,0,0,-18,0,0,0,-18,0,0,0,0,0
368,17007365,0,1,-46,0,0,0,0,0,0,0,1,1,1,-32,1000,0,0,-18,0,2524,142,57,940,0,0,0,-153,-151,2030,366,158,162,365,1,0,0,1,1,-0.07481510892226748,0.07143582528813702,6.283150653595094,0,1,-45,0,0,-18,0,0,0,-18,0,0,0,0,0
372,17008364,0,1,-46,0,0,0,-1,-1,0,0,1,1,1,-32,1000,0,0,-18,0,2524,142,57,940,0,0,0,-156,-151,2031,372,168,158,366,1,0,0,1,1,-0.07480818268829888,0.07149332804644011,6.283150653434453,-1,0,-45,0,0,-18,0,0,0,-18,0,0,0,0,0
376,17009363,0,1,-45,0,0,0,-1,0,0,0,1,1,1,-32,1000,0,0,-18,0,2524,142,57,940,0,0,-1,-151,-149,2030,368,158,162,359,1,0,0,1,1,-0.07479192990836935,0.07152105078641423,6.283168084978687,-1,1,-44,0,0,-18,0,0,0,-17,0,0,0,0,0
380,17010363,1,1,-46,0,0,0,0,2,0,0,1,1,1,-32,1000,0,0,-18,0,2524,142,57,940,0,0,1,-152,-150,2031,378,158,175,369,1,0,0,1,1,-0.0747786577655423,0.0715558331659873,6.283150635753407,1,3,-45,0,0,-18,0,0,0,-19,0,0,0,0,0
384,17011362,0,1,-45,0,0,0,0,0,0,0,0,1,1,-32,1000,0,0,-18,0,2524,142,57,940,0,0,0,-154,-149,2031,369,158,165,369,1,0,0,1,1,-0.0747614261738909,0.071599533225687,6.283150635600004,0,1,-45,0,0,-18,0,0,0,-18,0,0,0,0,0
388,17012361,1,0,-46,0,0,0,3,-3,0,0,0,1,1,-32,1000,0,0,-18,0,2524,142,57,940,0,0,1,-154,-151,2031,359,158,162,383,1,0,0,1,1,-0.0747541197052115,0.07164357077269304,6.283133203616964,4,-3,-46,0,0,-18,0,0,0,-19,0,0,0,0,0
392,17013361,2,1,-45,0,0,0,4,-1,0,0,0,1,1,-31,1000,0,0,-18,0,2524,142,57,940,0,0,-1,-153,-149,2029,367,158,185,390,1,0,0,1,1,-0.0747395136455757,0.07167963404210548,6.28315065279316,6,0,-45,0,0,-18,0,0,0,-17,0,0,0,0,0
396,17014360,1,1,-45,0,0,0,2,2,0,0,0,1,1,-31,1000,0,0,-18,0,2524,142,57,940,0,0,0,-153,-149,2029,378,158,187,377,1,0,0,1,1,-0.07472397553667755,0.07171625350393102,6.28315065266169,3,3,-45,0,0,-18,0,0,0,-18,0,0,0,0,0
400,17015359,0,1,-45,0,0,0,0,2,0,0,1,1,1,-31,1000,0,0,-18,0,2524,142,57,940,0,0,0,-151,-149,2028,375,158,176,363,1,0,0,1,1,-0.07470913843648885,0.07174203645190343,6.283150652558988,0,3,-44,0,0,-18,0,0,0,-18,0,0,0,0,0
404,17016359,1,0,-44,0,0,0,0,-3,0,0,1,1,1,-31,1000,0,0,-18,0,2524,142,57,940,0,0,0,-153,-147,2027,354,169,158,370,1,0,0,1,1,-0.07468456414895856,0.07177813550619651,6.283150652405309,1,-3,-43,0,0,-18,0,0,0,-18,0,0,0,0,0
408,17017358,0,0,-44,0,0,0,-4,-1,0,0,1,1,1,-31,1000,0,0,-17,0,2524,142,57,940,0,0,0,-150,-148,2024,374,182,158,361,1,0,0,1,1,-0.07466678768853764,0.07179916353159312,6.2831506523068,-4,-1,-43,0,0,-17,0,0,0,-17,0,0,0,0,0
412,17018357,0,2,-43,0,0,0,-2,2,0,0,1,1,1,-31,1000,0,0,-17,0,2524,142,57,940,0,0,0,-148,-148,2023,370,158,164,342,1,0,0,1,1,-0.0746497349023992,0.07180994368336353,6.28315065223571,-2,4,-42,0,0,-17,0,0,0,-17,0,0,0,0,0
416,17019357,0,1,-44,0,0,0,-1,0,0,0,1,1,1,-31,1000,0,0,-17,0,2524,142,57,940,0,0,0,-147,-147,2024,363,159,158,351,1,0,0,1,1,-0.07462755347700961,0.07181512205160084,6.283150652165298,-1,1,-43,0,0,-17,0,0,0,-17,0,0,0,0,0
420,17020364,0,1,-43,0,0,0,-1,1,0,0,1,1,1,-31,1000,0,0,-17,0,2524,142,57,940,0,0,-1,-150,-147,2023,359,158,162,352,1,0,0,1,1,-0.07460741338709397,0.07183431888028298,6.283168223951227,-1,2,-42,0,0,-17,0,0,0,-16,0,0,0,0,0
424,17021355,0,1,-43,0,0,0,0,-1,0,0,1,1,1,-31,1000,0,0,-17,0,2524,142,57,939,0,0,0,-147,-148,2024,352,158,159,354,1,0,0,1,1,-0.07459102553431424,0.07183913505933845,6.283168223924368,0,0,-42,0,0,-17,0,0,0,-17,0,0,0,0,0
428,17022355,1,1,-43,0,0,0,2,-1,0,0,1,1,1,-31,1000,0,0,-17,0,2526,142,57,939,0,0,0,-147,-146,2023,355,158,175,370,1,0,0,1,1,-0.07456542004257771,0.07184426917316941,6.283168223885349,3,0,-42,0,0,-17,0,0,0,-17,0,0,0,0,0
432,17023354,1,1,-44,0,0,0,3,1,0,0,0,1,1,-31,1000,0,0,-17,0,2526,66,57,939,0,0,1,-146,-147,2024,366,158,187,374,1,0,0,1,1,-0.07454358176743753,0.07184532580170933,6.283150791471115,4,2,-44,0,0,-17,0,0,0,-18,0,0,0,0,0
436,17024364,1,1,-44,0,0,0,1,2,0,0,0,1,1,-31,1000,0,0,-17,0,2526,66,57,939,0,0,0,-148,-148,2024,371,158,179,365,1,0,0,1,1,-0.07452823169058206,0.07185476537426544,6.283150791408087,2,3,-44,0,0,-17,0,0,0,-17,0,0,0,0,0
440,17025353,0,1,-44,0,0,0,0,-1,0,0,0,1,1,-31,1000,0,0,-17,0,2526,66,57,939,0,0,0,-147,-147,2023,358,158,158,359,1,0,0,1,1,-0.0745086940877987,0.0718595942818954,6.283150791345725,0,0,-44,0,0,-17,0,0,0,-17,0,0,0,0,0
444,17026352,1,0,-44,0,0,0,1,-2,0,0,0,1,1,-31,1000,0,0,-17,0,2526,66,57,939,0,0,0,-145,-147,2024,351,158,160,368,1,0,0,1,1,-0.07448914744766486,0.07185444803095506,6.2831507913081355,2,-2,-44,0,0,-17,0,0,0,-17,0,0,0,0,0
448,17027351,1,1,-43,0,0,0,2,-1,0,0,0,1,1,-31,1000,0,0,-17,0,2526,66,57,939,0,0,0,-146,-146,2026,356,158,174,373,1,0,0,1,1,-0.07446449161108348,0.07185347328992867,6.283150791247034,3,0,-43,0,0,-17,0,0,0,-17,0,0,0,0,0
452,17028351,3,1,-43,0,0,0,4,1,0,0,0,1,1,-31,1000,0,0,-17,0,2526,66,57,939,-1,0,0,-147,-145,2029,369,158,204,388,1,0,0,1,1,-0.07445179165873651,0.07185622659782437,6.2831507911625355,7,2,-43,0,0,-17,0,1,0,-17,0,0,0,0,0
456,17029350,1,1,-43,0,0,0,0,2,0,0,0,1,1,-31,1000,0,0,-17,0,2526,66,57,939,0,0,0,-148,-149,2029,368,158,174,362,1,0,0,1,1,-0.07444084914352432,0.07186349241169906,6.283150791116309,1,3,-43,0,0,-17,0,0,0,-17,0,0,0,0,0
460,17030349,0,2,-43,0,0,0,-4,4,0,0,0,1,1,-31,1000,0,0,-17,0,2526,66,57,939,0,0,0,-144,-147,2027,384,158,169,340,1,0,0,1,1,-0.07442151666612269,0.07185285044777705,6.283150791092982,-4,6,-43,0,0,-17,0,0,0,-17,0,0,0,0,0
464,17031349,-1,1,-43,0,0,0,-4,1,0,0,0,1,1,-31,1000,0,0,-17,0,2526,66,57,939,1,0,-1,-146,-147,2027,377,168,158,343,1,0,0,1,1,-0.07438646598350837,0.07185028160992082,6.28316824109973,-5,2,-43,0,0,-17,0,-1,0,-16,0,0,0,0,0
468,17032348,1,0,-44,0,0,0,0,-3,0,0,0,1,1,-31,1000,0,0,-17,0,2526,66,57,939,0,0,1,-148,-145,2028,355,165,158,369,1,0,0,1,1,-0.07435722737135209,0.07185914359322162,6.283150808406928,1,-3,-44,0,0,-17,0,0,0,-18,0,0,0,0,0
472,17033347,0,0,-44,0,0,0,-2,-4,0,0,0,1,1,-31,1000,0,0,-17,0,2526,66,57,939,0,0,0,-147,-147,2029,368,186,158,378,1,0,0,1,1,-0.07433843252528442,0.07186169119403431,6.283150808352287,-2,-4,-44,0,0,-17,0,0,0,-17,0,0,0,0,0
476,17034347,2,1,-44,0,0,0,1,-3,0,0,0,1,1,-31,1000,0,0,-17,0,2526,66,57,939,0,0,0,-148,-147,2033,347,158,158,371,1,0,0,1,1,-0.07431861252048594,0.07186739300476466,6.28315080828719,3,-2,-44,0,0,-17,0,0,0,-17,0,0,0,0,0
480,17035346,1,1,-43,0,0,0,1,2,0,0,0,1,1,-31,1000,0,0,-17,0,2526,66,57,939,0,0,0,-148,-147,2034,371,158,181,366,1,0,0,1,1,-0.07429878916899976,0.07187268062907869,6.283150808223125,2,3,-43,0,0,-17,0,0,0,-17,0,0,0,0,0
484,17036346,2,3,-43,0,0,0,3,7,0,0,0,1,1,-31,1000,0,0,-17,0,2526,66,57,939,0,-1,0,-147,-146,2034,401,158,226,379,1,0,0,1,1,-0.07427477104402043,0.07185623922697472,6.283149509659107,5,10,-43,0,0,-17,0,0,1,-17,0,0,0,0,0
488,17037345,1,2,-43,0,0,0,1,4,0,0,0,1,1,-31,1000,0,0,-17,0,2526,66,57,939,0,0,0,-149,-147,2033,385,158,196,365,1,0,0,1,1,-0.07425596006958009,0.07186624987433496,6.283149509913258,2,6,-43,0,0,-17,0,0,0,-17,0,0,0,0,0
492,17038344,0,0,-43,0,0,0,-3,0,0,0,0,1,1,-31,1000,0,0,-17,0,2526,66,57,939,0,0,0,-149,-147,2028,370,172,158,357,1,0,0,1,1,-0.07423907660291595,0.0718776614955972,6.283149510135119,-3,0,-43,0,0,-17,0,0,0,-17,0,0,0,0,0
496,17039343,0,0,-43,0,0,0,0,-6,0,0,0,1,1,-31,1000,0,0,-17,0,2526,66,57,939,0,0,0,-146,-149,2024,355,183,158,384,1,0,0,1,1,-0.07423241858614586,0.07187711789546146,6.283149510235615,0,-6,-43,0,0,-17,0,0,0,-17,0,0,0,0,0
500,17040343,0,0,-43,0,0,0,-1,-6,0,0,0,1,1,-31,1000,0,0,-17,0,2526,66,57,939,0,0,0,-145,-149,2022,360,191,158,386,1,0,0,1,1,-0.07422650602672203,0.07187290727758239,6.2831495103344706,-1,-6,-43,0,0,-17,0,0,0,-17,0,0,0,0,0
504,17041342,2,1,-43,0,0,0,0,0,0,0,0,1,1,-31,1000,0,0,-17,0,2526,66,57,939,0,0,0,-147,-149,2023,364,158,174,368,1,0,0,1,1,-0.07422036874572598,0.07187698042996446,6.283149510415318,2,1,-43,0,0,-17,0,0,0,-17,0,0,0,0,0
508,17042341,1,1,-43,0,0,0,-1,2,0,0,0,1,1,-31,1000,0,0,-17,0,2526,66,57,939,0,0,0,-148,-151,2023,371,158,174,358,1,0,0,1,1,-0.07422281178676249,0.07188517685880716,6.283149510357824,0,3,-43,0,0,-17,0,0,0,-17,0,0,0,0,0
512,17043341,1,2,-43,0,0,0,0,4,0,0,0,1,1,-31,1000,0,0,-17,0,2526,-50,57,939,0,0,0,-147,-151,2022,383,158,187,360,1,0,0,1,1,-0.07422553027259267,0.0718893453980572,6.283149510306615,1,6,-43,0,0,-17,0,0,0,-17,0,0,0,0,0
516,17044343,0,3,-43,0,0,0,-1,6,0,0,0,1,1,-31,1000,0,0,-17,0,2526,-50,57,939,0,-1,0,-144,-151,2022,394,158,191,351,1,0,0,1,1,-0.07422811440729538,0.07186363629917786,6.283148210006012,-1,9,-43,0,0,-17,0,0,1,-17,0,0,0,0,0
520,17045339,0,0,-43,0,0,0,-4,-2,0,0,0,1,1,-31,1000,0,0,-17,0,2526,-50,57,939,1,0,0,-147,-150,2020,378,184,158,363,1,0,0,1,1,-0.07420997679013669,0.07186854753034337,6.283148210017301,-4,-2,-43,0,0,-17,0,-1,0,-17,0,0,0,0,0
524,17046338,1,0,-43,0,0,0,-1,-5,0,0,0,1,1,-31,1000,0,0,-17,0,2526,-50,57,939,0,0,0,-146,-152,2019,360,183,158,378,1,0,0,1,1,-0.07421779632968886,0.07186951846278002,6.283148209761597,0,-5,-43,0,0,-17,0,0,0,-17,0,0,0,0,0
528,17047338,0,0,-43,0,0,0,-1,-5,0,0,0,1,1,-31,1000,0,0,-17,0,2526,-50,57,939,0,0,0,-145,-152,2019,361,183,158,377,1,0,0,1,1,-0.07422549860485675,0.07186638455251775,6.283148209520659,-1,-5,-43,0,0,-17,0,0,0,-17,0,0,0,0,0
532,17048338,0,1,-43,0,0,0,-1,-1,0,0,0,1,1,-31,1000,0,0,-17,0,2526,-50,57,939,0,0,0,-146,-152,2017,362,163,158,357,1,0,0,1,1,-0.07423369204798642,0.07186794393043903,6.2831482092512845,-1,0,-43,0,0,-17,0,0,0,-17,0,0,0,0,0
536,17049337,1,2,-44,0,0,0,2,3,0,0,0,1,1,-31,1000,0,0,-17,0,2526,-50,57,939,0,0,0,-146,-152,2018,379,158,189,369,1,0,0,1,1,-0.07424146358259903,0.07186919047626833,6.283148208996405,3,5,-44,0,0,-17,0,0,0,-17,0,0,0,0,0
540,17050336,1,0,-44,0,0,0,1,0,0,0,0,1,1,-31,1000,0,0,-17,0,2526,-50,57,939,0,0,0,-145,-154,2021,361,158,170,368,1,0,0,1,1,-0.07425626401895273,0.07186550184230978,6.283148208527207,2,0,-44,0,0,-17,0,0,0,-17,0,0,0,0,0
544,17051335,1,1,-43,0,0,0,1,3,0,0,0,1,1,-31,1000,0,0,-17,0,2526,-50,57,939,0,0,0,-144,-154,2021,378,158,187,366,1,0,0,1,1,-0.07427084863463942,0.07185788260702938,6.283148208075503,2,4,-43,0,0,-17,0,0,0,-17,0,0,0,0,0
548,17052335,0,2,-43,0,0,0,-2,2,0,0,0,1,1,-31,1000,0,0,-17,0,2526,-50,57,939,0,0,0,-144,-154,2023,371,158,165,349,1,0,0,1,1,-0.07428463143290288,0.07184980536740171,6.283148207650981,-2,4,-43,0,0,-17,0,0,0,-17,0,0,0,0,0
552,17053334,2,1,-44,0,0,0,3,0,0,0,0,1,1,-31,1000,0,0,-17,0,2526,-50,57,939,0,0,0,-145,-154,2025,363,158,185,380,1,0,0,1,1,-0.07429762888758168,0.07184521329921893,6.283148207242573,5,1,-44,0,0,-17,0,0,0,-17,0,0,0,0,0
556,17054333,1,1,-43,0,0,0,0,1,0,0,0,1,1,-31,1000,0,0,-17,0,2526,-50,57,939,0,0,0,-145,-154,2026,366,158,172,363,1,0,0,1,1,-0.07431014872786643,0.07184040639558097,6.2831482068502025,1,2,-43,0,0,-17,0,0,0,-17,0,0,0,0,0
560,17055333,0,1,-43,0,0,0,-2,-1,0,0,0,1,1,-31,1000,0,0,-17,0,2526,-50,57,939,0,0,0,-143,-153,2026,367,168,158,356,1,0,0,1,1,-0.07431859717882631,0.07182792030036282,6.283148206610116,-2,0,-43,0,0,-17,0,0,0,-17,0,0,0,0,0
564,17056334,0,0,-43,0,0,0,-2,-3,0,0,0,1,1,-31,1000,0,0,-17,0,2526,-50,57,939,1,0,0,-143,-155,2026,370,184,158,369,1,0,0,1,1,-0.0743173317829962,0.0718155691673834,6.28314820611862,-2,-3,-43,0,0,-17,0,-1,0,-17,0,0,0,0,0
568,17057331,0,1,-43,0,0,0,-1,-1,0,0,0,1,1,-30,1000,0,0,-17,0,2526,-50,57,939,0,0,0,-145,-153,2025,361,162,158,355,1,0,0,1,1,-0.0743259057637132,0.0718113794401957,6.283148205852318,-1,0,-43,0,0,-17,0,0,0,-17,0,0,0,0,0
572,17058330,0,1,-43,0,0,0,0,-1,0,0,0,1,1,-30,1000,0,0,-17,0,2526,-50,57,939,0,0,0,-144,-154,2023,360,164,158,360,1,0,0,1,1,-0.07433875144974063,0.07180396198347928,6.2831482054563885,0,0,-43,0,0,-17,0,0,0,-17,0,0,0,0,0
576,17059330,-1,2,-43,0,0,0,-1,2,0,0,0,1,1,-30,1000,0,0,-17,0,2526,-50,57,939,1,0,0,-144,-154,2021,372,158,164,347,1,0,0,1,1,-0.0743346671925156,0.07179719047764008,6.283148205041801,-2,4,-43,0,0,-17,0,-1,0,-17,0,0,0,0,0
580,17060331,1,2,-43,0,0,0,0,3,0,0,0,1,1,-30,1000,0,0,-17,0,2526,-50,57,939,0,0,0,-145,-154,2021,378,158,187,360,1,0,0,1,1,-0.07434785315061657,0.0717942783608926,6.283148204622843,1,5,-43,0,0,-17,0,0,0,-17,0,0,0,0,0
584,17061329,-1,2,-43,0,0,0,-2,3,0,0,0,1,1,-30,1000,0,0,-17,0,2526,-50,57,939,1,0,1,-144,-155,2022,375,158,167,346,1,0,0,1,1,-0.07434580811581339,0.0717886568224689,6.28313078897907,-3,5,-43,0,0,-17,0,-1,0,-18,0,0,0,0,0
588,17062328,0,1,-43,0,0,0,0,-1,0,0,0,1,1,-30,1000,0,0,-17,0,2527,-50,57,939,0,0,0,-145,-155,2023,356,160,158,354,1,0,0,1,1,-0.07436192803353055,0.07178529028426238,6.283130788491523,0,0,-43,0,0,-17,0,0,0,-17,0,0,0,0,0
592,17063327,0,1,-43,0,0,0,0,-1,0,0,0,1,1,-30,1000,0,0,-17,0,2527,74,57,939,0,0,0,-145,-154,2023,353,158,159,356,1,0,0,1,1,-0.07437412247887287,0.07178198873408927,6.28313078812567,0,0,-43,0,0,-17,0,0,0,-17,0,0,0,0,0
596,17064326,0,0,-42,0,0,0,0,-4,0,0,0,1,1,-30,1000,0,0,-17,0,2527,74,57,939,0,0,0,-145,-156,2024,355,177,158,370,1,0,0,1,1,-0.07439325367189269,0.07177842817919268,6.283130787545372,0,-4,-42,0,0,-17,0,0,0,-17,0,0,0,0,0
600,17065326,0,0,-42,0,0,0,1,-5,0,0,0,1,1,-30,1000,0,0,-17,0,2527,74,57,939,0,0,0,-143,-156,2026,349,178,158,375,1,0,0,1,1,-0.0744115844403939,0.07176707648683398,6.2831307870205055,1,-5,-42,0,0,-17,0,0,0,-17,0,0,0,0,0
604,17066325,-1,1,-42,0,0,0,-2,1,0,0,0,1,1,-30,1000,0,0,-17,0,2527,74,57,939,1,0,0,-143,-157,2027,367,165,158,343,1,0,0,1,1,-0.0744157397527324,0.07175559454744179,6.283130786394897,-3,2,-42,0,0,-17,0,-1,0,-17,0,0,0,0,0
608,17067324,0,1,-42,0,0,0,1,2,0,0,0,1,1,-30,1000,0,0,-17,0,2527,74,57,939,0,0,0,-144,-157,2026,368,158,181,358,1,0,0,1,1,-0.07443731784597506,0.07174813732719898,6.283130785753934,1,3,-42,0,0,-17,0,0,0,-17,0,0,0,0,0
612,17068324,0,1,-42,0,0,0,0,1,0,0,0,1,1,-30,1000,0,0,-17,0,2527,74,57,939,0,0,-1,-144,-158,2024,358,158,166,351,1,0,0,1,1,-0.07446399712569787,0.07173998474327264,6.28314823480385,0,2,-42,0,0,-17,0,0,0,-16,0,0,0,0,0
616,17069323,0,2,-41,0,0,0,-1,3,0,0,0,1,1,-30,1000,0,0,-17,0,2527,74,57,939,0,-1,0,-143,-158,2025,375,158,181,345,1,0,0,1,1,-0.0744887367103645,0.07171212774809024,6.283146933110028,-1,5,-41,0,0,-17,0,0,1,-17,0,0,0,0,0
620,17070322,1,1,-42,0,0,0,4,1,0,0,0,1,1,-30,1000,0,0,-17,0,2527,74,57,939,0,0,1,-139,-161,2024,362,158,192,375,1,0,0,1,1,-0.0745229641037416,0.0716890616426764,6.283129499191637,5,2,-42,0,0,-17,0,0,0,-18,0,0,0,0,0
624,17071323,1,1,-43,0,0,0,0,-1,0,0,0,1,1,-30,1000,0,0,-17,0,2527,74,57,939,0,0,1,-145,-161,2023,354,158,160,362,1,0,0,1,1,-0.07455700996209583,0.07168776033462557,6.28311203041811,1,0,-43,0,0,-17,0,0,0,-18,0,0,0,0,0
628,17072321,-1,0,-43,0,0,0,-2,-3,0,0,0,1,1,-30,1000,0,0,-17,0,2527,74,57,939,1,0,0,-147,-161,2022,372,187,158,367,1,0,0,1,1,-0.07457482894937613,0.07169247294591956,6.283112028730819,-3,-3,-43,0,0,-17,0,-1,0,-17,0,0,0,0,0
632,17073320,2,1,-43,0,0,0,2,0,0,0,0,1,1,-30,1000,0,0,-17,0,2527,74,57,939,0,0,0,-144,-161,2022,364,158,182,372,1,0,0,1,1,-0.07460962233854662,0.0716866387894926,6.283112027120102,4,1,-43,0,0,-17,0,0,0,-17,0,0,0,0,0
636,17074320,1,1,-43,0,0,0,3,2,0,0,0,1,1,-30,1000,0,0,-17,0,2527,74,57,939,0,0,0,-144,-163,2020,367,158,189,373,1,0,0,1,1,-0.07465147125853476,0.07168133826875228,6.283112025173834,4,3,-43,0,0,-17,0,0,0,-17,0,0,0,0,0
640,17075319,1,1,-42,0,0,0,3,-2,0,0,0,1,1,-30,1000,0,0,-17,0,2527,74,57,939,0,0,-1,-147,-161,2019,348,158,173,370,1,0,0,1,1,-0.07468736650180248,0.07168547113962252,6.283129455514701,4,-1,-42,0,0,-17,0,0,0,-16,0,0,0,0,0
644,17076318,1,1,-42,0,0,0,1,-1,0,0,0,1,1,-30,1000,0,0,-17,0,2527,74,57,939,0,0,0,-145,-162,2018,353,158,172,365,1,0,0,1,1,-0.0747252911720633,0.07168418593220983,6.283129453681527,2,0,-42,0,0,-17,0,0,0,-17,0,0,0,0,0
648,17077318,1,1,-42,0,0,0,1,1,0,0,0,1,1,-30,1000,0,0,-17,0,2527,74,57,939,0,0,0,-141,-163,2019,360,158,173,360,1,0,0,1,1,-0.0747659230348004,0.07166896773133197,6.28312945177313,2,2,-42,0,0,-17,0,0,0,-17,0,0,0,0,0
652,17078317,-1,1,-42,0,0,0,-5,2,0,0,0,1,1,-30,1000,0,0,-17,0,2527,74,57,939,1,0,0,-146,-160,2018,379,172,158,341,1,0,0,1,1,-0.07477876579660182,0.0716712500279655,6.283129450296397,-6,3,-42,0,0,-17,0,-1,0,-17,0,0,0,0,0
656,17079316,0,0,-42,0,0,0,-1,-2,0,0,0,1,1,-30,1000,0,0,-17,0,2527,74,57,939,0,0,0,-149,-160,2015,354,169,158,358,1,0,0,1,1,-0.07480944036314285,0.0716843883310764,6.283129448756954,-1,-2,-42,0,0,-17,0,0,0,-17,0,0,0,0,0
660,17080316,1,1,-42,0,0,0,1,-1,0,0,0,1,1,-30,1000,0,0,-17,0,2527,74,57,939,0,0,-1,-143,-159,2014,351,158,169,360,1,0,0,1,1,-0.07483786437219292,0.07167612442152975,6.283146896712709,2,0,-42,0,0,-17,0,0,0,-16,0,0,0,0,0
664,17081315,1,1,-42,0,0,0,3,1,0,0,0,1,1,-30,1000,0,0,-17,0,2527,74,57,939,0,0,0,-142,-162,2015,359,158,185,368,1,0,0,1,1,-0.07487453729243883,0.071665603624163,6.283146894916435,4,2,-42,0,0,-17,0,0,0,-17,0,0,0,0,0
668,17082314,0,1,-42,0,0,0,-3,2,0,0,0,1,1,-30,1000,0,0,-17,0,2528,74,57,939,0,0,-1,-147,-158,2017,361,159,158,339,1,0,0,1,1,-0.0748981473519964,0.07167017408934084,6.283164325496579,-3,3,-42,0,0,-17,0,0,0,-16,0,0,0,0,0
672,17083314,-1,-1,-40,0,0,0,-5,-5,0,0,0,1,1,-30,1000,0,0,-17,0,2528,-50,57,939,1,1,-1,-149,-159,2017,371,214,158,371,1,0,0,1,1,-0.07490756780407669,0.0716985845497327,6.283183082858283,-6,-6,-40,0,0,-17,0,-1,-1,-16,0,0,0,0,0
676,17084313,-1,0,-39,0,0,0,-2,-4,0,0,0,1,1,-30,1000,0,0,-17,0,2528,-50,57,939,1,0,-2,-147,-158,2017,353,191,158,359,1,0,0,1,1,-0.07491465205430786,0.07170157811351473,0.000032638365741632924,-3,-4,-39,0,0,-17,0,-1,0,-15,0,0,0,0,0
680,17085312,0,1,-40,0,0,0,1,-1,0,0,0,1,1,-29,1000,0,0,-17,0,2528,-50,57,939,0,0,1,-142,-151,2013,341,158,165,350,1,0,0,1,1,-0.07491312872571101,0.07169305979873804,0.000015206637901776787,1,0,-40,0,0,-17,0,0,0,-18,0,0,0,0,0
684,17086312,1,1,-43,0,0,0,3,5,0,0,0,1,1,-29,1000,0,0,-17,0,2528,-50,57,939,0,0,2,-151,-153,2005,383,158,205,370,1,0,0,1,1,-0.07491888938729552,0.07171718459413443,6.28316561517088,4,6,-43,0,0,-17,0,0,0,-19,0,0,0,0,0
688,17087311,1,1,-44,0,0,0,0,2,0,0,1,1,1,-29,1000,0,0,-16,0,2528,-50,57,939,0,0,3,-150,-150,1996,372,158,176,364,1,0,0,1,1,-0.07491575794455006,0.07174123738237978,6.283113319815409,1,3,-43,0,0,-16,0,0,0,-19,0,0,0,0,0
692,17088310,3,3,-46,0,0,0,7,8,0,0,1,1,1,-29,1000,0,0,-16,0,2528,-50,57,939,-1,-1,3,-148,-150,1989,414,158,253,409,1,0,0,1,1,-0.07493157681208149,0.07174291538999053,6.283059715714832,10,11,-45,0,0,-16,0,1,1,-19,0,0,0,0,0
696,17089310,5,2,-46,0,0,0,12,5,0,0,1,1,1,-29,1000,0,0,-16,0,2528,-50,57,939,-2,-1,1,-153,-151,1988,396,158,272,440,1,0,0,1,1,-0.07497059148346637,0.07175821292038115,6.283040955370405,17,7,-45,0,0,-16,0,2,1,-17,0,0,0,0,0
700,17090309,4,3,-44,0,0,0,10,6,0,0,1,1,1,-29,1000,0,0,-16,0,2528,-50,57,939,-1,-1,0,-156,-148,1989,395,158,260,415,1,0,0,1,1,-0.07498333659168946,0.07178141619465464,6.283039645675008,14,9,-43,0,0,-16,0,1,1,-16,0,0,0,0,0
704,17091308,6,1,-40,0,0,0,10,-1,0,0,1,1,1,-29,1000,0,0,-16,0,2528,-50,57,939,-2,0,-3,-152,-150,1999,338,158,228,408,1,0,0,1,1,-0.0750211567841384,0.07180258041295663,6.2830919406259484,16,0,-39,0,0,-16,0,2,0,-13,0,0,0,0,0
708,17092308,1,2,-38,0,0,0,-3,0,0,0,1,1,1,-29,1000,0,0,-16,0,2528,-50,57,939,0,0,-1,-156,-146,2009,337,159,158,323,1,0,0,1,1,-0.07500649114783989,0.0718365725761201,6.283109390898554,-2,2,-37,0,0,-16,0,0,0,-15,0,0,0,0,0
712,17093307,1,2,-35,0,0,0,-1,-3,0,0,1,1,1,-29,1000,0,0,-16,0,2528,-50,57,939,0,0,-5,-159,-143,2009,315,164,158,320,1,0,0,1,1,-0.07498746776246698,0.0718745157527942,0.000011244824898781758,0,-1,-34,0,0,-16,0,0,0,-11,0,0,0,0,0
716,17094306,0,-2,-33,0,0,0,-12,-14,0,0,1,1,1,-29,1000,0,0,-16,0,2528,-50,57,939,0,1,-2,-156,-139,2010,364,288,158,382,1,0,0,1,1,-0.07495220848380064,0.07192358975973397,0.000047421092498112216,-12,-16,-32,0,0,-16,0,0,-1,-14,0,0,0,0,0
720,17095306,-1,1,-34,0,0,0,-16,-1,0,0,0,1,1,-29,1000,0,0,-16,0,2528,-50,57,939,1,0,-3,-159,-140,2009,388,240,158,317,1,0,0,1,1,-0.07490453525276455,0.07196321160247202,0.00009977231187807689,-17,0,-34,0,0,-16,0,-1,0,-13,0,0,0,0,0
724,17096305,-3,2,-36,0,0,0,-13,-1,0,0,0,1,1,-29,1000,0,0,-16,0,2528,-50,57,939,1,0,1,-160,-140,2006,394,223,158,319,1,0,0,1,1,-0.07485305680012434,0.07201135909700655,0.00008234300336074085,-16,1,-36,0,0,-16,0,-1,0,-17,0,0,0,0,0
728,17097304,0,2,-39,0,0,0,-4,3,0,0,0,1,1,-28,1000,0,0,-16,0,2528,-50,57,939,0,0,1,-165,-141,1999,358,158,160,322,1,0,0,1,1,-0.07482411627120927,0.07207603488006056,0.00006491318255807954,-4,5,-39,0,0,-16,0,0,0,-17,0,0,0,0,0
732,17098304,3,0,-42,0,0,0,3,-2,0,0,0,1,1,-28,1000,0,0,-16,0,2528,-50,57,939,-1,0,2,-160,-139,1998,345,158,182,381,1,0,0,1,1,-0.07480562018920038,0.07212614194474094,0.000030016219876749517,6,-2,-42,0,0,-16,0,1,0,-18,0,0,0,0,0
736,17099303,1,2,-44,0,0,0,7,3,0,0,0,1,1,-28,1000,0,0,-16,0,2528,-50,57,939,0,0,3,-162,-143,2000,382,158,222,397,1,0,0,1,1,-0.07478065368256633,0.07218264958423441,6.2831630275491985,8,5,-44,0,0,-16,0,0,0,-19,0,0,0,0,0
740,17100305,8,0,-44,0,0,0,22,0,0,0,0,1,1,-28,1000,0,0,-16,0,2528,-50,57,939,-3,0,1,-160,-142,2003,362,158,299,490,1,0,0,1,1,-0.07480681521986011,0.07222922383020187,6.283145544314503,30,0,-44,0,0,-16,0,3,0,-17,0,0,0,0,0
744,17101302,6,0,-43,0,0,0,20,-1,0,0,0,1,1,-28,1000,0,0,-16,0,2528,-50,57,939,-2,0,1,-158,-142,2007,353,158,275,467,1,0,0,1,1,-0.07481446464706377,0.07226833391820241,6.283128148279208,26,-1,-43,0,0,-16,0,2,0,-17,0,0,0,0,0
748,17102301,9,1,-40,0,0,0,20,1,0,0,0,1,1,-28,1000,0,0,-16,0,2497,-50,57,939,-3,0,-2,-159,-139,2014,352,158,303,470,1,0,0,1,1,-0.07483262215386484,0.07230469720273298,6.283163015723546,29,2,-40,0,0,-16,0,3,0,-14,0,0,0,0,0
752,17103300,8,0,-38,0,0,0,17,-6,0,0,0,1,1,-28,1000,0,0,-16,0,2497,1354,57,939,-3,1,-2,-160,-142,2015,302,158,248,443,1,0,0,1,1,-0.07485977481612849,0.07236069347239021,0.000013883039988726864,25,-6,-38,0,0,-16,0,3,-1,-14,0,0,0,0,0
756,17104300,9,-3,-35,0,0,0,4,-11,0,0,0,1,1,-28,1000,0,0,-16,0,2497,1354,57,939,-3,1,-4,-163,-134,2015,261,163,158,379,1,0,0,1,1,-0.07486536132785296,0.07242272357345728,0.00008499526416105851,13,-14,-35,0,0,-16,0,3,-1,-12,0,0,0,0,0
760,17105299,7,-4,-34,0,0,0,-3,-12,0,0,0,1,1,-28,1000,0,0,-16,0,2497,1354,57,939,-2,2,-2,-164,-139,2019,299,216,158,385,1,0,0,1,1,-0.07486543665548538,0.0725060632615927,0.0001224777710060465,4,-16,-34,0,0,-16,0,2,-2,-14,0,0,0,0,0
764,17106298,2,-3,-34,0,0,0,-20,-5,0,0,0,1,1,-28,1000,0,0,-16,0,2497,1354,57,939,0,1,-3,-167,-135,2032,395,279,158,348,1,0,0,1,1,-0.0748173330387249,0.07257628616915492,0.0001760842941553875,-18,-8,-34,0,0,-16,0,0,-1,-13,0,0,0,0,0
768,17107298,2,-1,-35,0,0,0,-12,2,0,0,0,1,1,-28,1000,0,0,-16,0,2497,1354,57,939,0,1,0,-170,-137,2040,364,199,158,313,1,0,0,1,1,-0.07477014627880606,0.07265687665378513,0.00017739211805434252,-10,1,-35,0,0,-16,0,0,-1,-16,0,0,0,0,0
772,17108297,0,1,-38,0,0,0,-19,8,0,0,0,1,1,-28,1000,0,0,-16,0,2497,1354,57,939,0,0,1,-173,-135,2052,418,208,158,293,1,0,0,1,1,-0.07471352848358483,0.0727270066177929,0.00015995852406724964,-19,9,-38,0,0,-16,0,0,0,-17,0,0,0,0,0
776,17109296,-1,2,-38,0,0,0,-10,12,0,0,3,1,1,-22,1000,0,0,-15,0,2497,1354,57,939,1,0,0,-172,-135,2068,382,158,175,272,1,0,0,1,1,-0.07463790335190582,0.07278875582559756,0.0001599579024640363,-11,14,-35,0,0,-15,0,-1,0,-15,0,0,0,0,0
780,17110296,-1,-1,-39,0,0,0,-9,4,0,0,10,1,1,-22,1000,0,0,-14,0,2497,1354,57,939,1,1,1,-173,-129,2090,344,194,158,282,1,0,0,1,1,-0.07453940437442645,0.07286678234220405,0.00014380884926090687,-10,3,-29,0,0,-14,0,-1,-1,-15,0,0,0,0,0
784,17111295,2,0,-38,0,0,0,7,-1,0,0,16,1,1,-22,1000,0,0,-13,0,2497,1354,57,939,-1,0,1,-175,-127,2115,253,158,194,303,1,0,0,1,1,-0.07446516681192841,0.07292731582878413,0.00012637183148900277,9,-1,-22,0,0,-13,0,1,0,-14,0,0,0,0,0
788,17112294,7,-1,-37,0,0,0,18,-7,0,0,20,1,1,-22,1000,0,0,-13,0,2497,1354,57,939,-2,1,1,-173,-122,2136,200,158,233,349,1,0,0,1,1,-0.07439014371264983,0.07299433212682926,0.00011023288520028984,25,-8,-17,0,0,-13,0,2,-1,-14,0,0,0,0,0
792,17113294,12,-3,-34,0,0,0,31,-11,0,0,20,1,1,-21,1000,0,0,-12,0,2497,1354,57,939,-4,1,1,-174,-120,2149,164,158,292,419,1,0,0,1,1,-0.07434221896468678,0.07306090906316168,0.0000940742269959216,43,-14,-14,0,0,-12,0,4,-1,-13,0,0,0,0,0
796,17114293,16,-3,-35,0,0,0,32,-9,0,0,15,1,1,-21,1000,0,0,-12,0,2497,1354,57,939,-6,1,1,-176,-118,2165,197,158,326,465,1,0,0,1,1,-0.07432052205895198,0.07312925242563871,0.00007792831077768625,48,-12,-20,0,0,-12,0,6,-1,-13,0,0,0,0,0
800,17115292,14,-2,-33,0,0,0,23,-3,0,0,10,1,1,-21,1000,0,0,-12,0,2497,1354,57,939,-5,1,2,-177,-122,2171,244,158,302,426,1,0,0,1,1,-0.07429111924767284,0.07319977139604748,0.00004434604919989482,37,-5,-23,0,0,-12,0,5,-1,-14,0,0,0,0,0
804,17116293,17,0,-34,0,0,0,17,1,0,0,7,1,1,-21,1000,0,0,-11,0,2497,1354,57,939,-6,0,2,-179,-122,2175,291,158,315,434,1,0,0,1,1,-0.07427900512870794,0.07325720282574841,0.000009393719852646143,34,1,-27,0,0,-11,0,6,0,-13,0,0,0,0,0
808,17117291,13,1,-33,0,0,0,2,7,0,0,4,1,1,-21,1000,0,0,-11,0,2497,1354,57,939,-5,0,2,-181,-129,2175,328,158,268,363,1,0,0,1,1,-0.0742697432069299,0.07331957494612353,6.283159855175072,15,8,-29,0,0,-11,0,5,0,-13,0,0,0,0,0
812,17118290,11,3,-33,0,0,0,-7,11,0,0,3,1,1,-21,1000,0,0,-11,0,2497,1354,57,939,-4,-1,1,-181,-132,2174,358,158,239,313,1,0,0,1,1,-0.0742535805959656,0.07336288611278383,6.283141112843081,4,14,-30,0,0,-11,0,4,1,-12,0,0,0,0,0
816,17119289,7,2,-31,0,0,0,-15,9,0,0,3,1,1,-21,1000,0,0,-11,0,2497,1354,57,939,-2,0,1,-182,-139,2174,340,158,172,256,1,0,0,1,1,-0.07422302845718046,0.07342564280064422,6.283123670875308,-8,11,-28,0,0,-11,0,2,0,-12,0,0,0,0,0
820,17120289,4,4,-30,0,0,0,-22,11,0,0,2,1,1,-21,1000,0,0,-11,0,2497,1354,57,939,-1,-1,-1,-182,-138,2177,364,168,158,216,1,0,0,1,1,-0.0741746597873269,0.0734672691431458,6.283139818743871,-18,15,-28,0,0,-11,0,1,1,-10,0,0,0,0,0
824,17121288,5,1,-28,0,0,0,-14,-2,0,0,2,1,1,-21,1000,0,0,-11,0,2497,1354,57,939,-2,0,0,-182,-138,2177,324,210,158,288,1,0,0,1,1,-0.07414301845939622,0.07352695859299573,6.283139812489518,-9,-1,-26,0,0,-11,0,2,0,-11,0,0,0,0,0
828,17122287,5,-2,-27,0,0,0,-12,-13,0,0,1,1,1,-21,1000,0,0,-11,0,2521,1354,57,939,-2,1,-2,-183,-142,2178,314,261,158,345,1,0,0,1,1,-0.07412540334787988,0.07360323973191867,6.283175972316339,-7,-15,-26,0,0,-11,0,2,-1,-9,0,0,0,0,0
832,17123287,4,-1,-26,0,0,0,-6,-11,0,0,1,1,1,-21,1000,0,0,-11,0,2521,282,57,939,-1,1,0,-177,-140,2174,286,224,158,332,1,0,0,1,1,-0.0740835697676235,0.07366567587859049,6.2831772613296515,-2,-12,-25,0,0,-11,0,1,-1,-11,0,0,0,0,0
836,17124286,8,-1,-26,0,0,0,6,-12,0,0,0,1,1,-21,1000,0,0,-11,0,2521,282,57,939,-3,1,-2,-178,-142,2172,215,158,159,339,1,0,0,1,1,-0.07408535530669363,0.07372807460270178,0.000028112353750664454,14,-13,-26,0,0,-11,0,3,-1,-9,0,0,0,0,0
840,17125285,12,0,-27,0,0,0,14,-1,0,0,0,1,1,-21,1000,0,0,-11,0,2521,282,57,939,-4,0,1,-175,-144,2167,280,158,274,395,1,0,0,1,1,-0.07410726641914597,0.07376924015778964,0.000010670603867168893,26,-1,-27,0,0,-11,0,4,0,-12,0,0,0,0,0
844,17126285,12,1,-27,0,0,0,15,4,0,0,0,1,1,-21,1000,0,0,-11,0,2521,282,57,939,-5,0,-2,-175,-145,2159,302,158,302,400,1,0,0,1,1,-0.07415484996598322,0.07380772426032847,0.00004557043635777802,27,5,-27,0,0,-11,0,5,0,-9,0,0,0,0,0
848,17127284,10,2,-27,0,0,0,9,6,0,0,0,1,1,-21,1000,0,0,-11,0,2521,282,57,939,-4,0,1,-170,-149,2145,322,158,284,372,1,0,0,1,1,-0.07419477233046598,0.07383885547276138,0.00002813125359946156,19,8,-27,0,0,-11,0,4,0,-12,0,0,0,0,0
852,17128283,8,2,-28,0,0,0,2,6,0,0,0,1,1,-21,1000,0,0,-11,0,2521,282,57,939,-3,-1,1,-163,-146,2137,325,158,244,336,1,0,0,1,1,-0.07421064355656813,0.07383514191927239,0.000009394790398964403,10,8,-28,0,0,-11,0,3,1,-12,0,0,0,0,0
856,17129283,7,0,-31,0,0,0,-10,0,0,0,0,1,1,-21,1000,0,0,-11,0,2521,282,57,939,-3,0,3,-160,-148,2136,315,169,158,299,1,0,0,1,1,-0.07422974297527231,0.07384336886837116,6.283142340023431,-3,0,-31,0,0,-11,0,3,0,-14,0,0,0,0,0
860,17130282,7,0,-32,0,0,0,-10,-1,0,0,0,1,1,-21,1000,0,0,-11,0,2521,282,57,939,-2,0,2,-160,-144,2132,320,178,158,311,1,0,0,1,1,-0.07422281172767514,0.073851089257591,6.283107464356624,-3,-1,-32,0,0,-11,0,2,0,-13,0,0,0,0,0
864,17131282,6,-1,-33,0,0,0,-15,-6,0,0,0,1,1,-21,1000,0,0,-11,0,2521,282,57,939,-2,1,2,-157,-149,2129,351,233,158,339,1,0,0,1,1,-0.0742301661745051,0.07386857287459413,6.2830738534606665,-9,-7,-33,0,0,-11,0,2,-1,-13,0,0,0,0,0
868,17132281,5,-3,-31,0,0,0,-10,-7,0,0,0,1,1,-21,1000,0,0,-11,0,2521,282,57,939,-2,1,0,-156,-146,2129,324,226,158,346,1,0,0,1,1,-0.0742321208245399,0.07388076380484378,6.283075145245363,-5,-10,-31,0,0,-11,0,2,-1,-11,0,0,0,0,0
872,17133280,3,-1,-30,0,0,0,-9,-1,0,0,0,1,1,-20,1000,0,0,-11,0,2521,282,57,940,-1,1,0,-152,-148,2125,323,195,158,307,1,0,0,1,1,-0.07422295110244743,0.07388308172911247,6.283076437422436,-6,-2,-30,0,0,-11,0,1,-1,-11,0,0,0,0,0
876,17134279,7,1,-28,0,0,0,4,1,0,0,0,1,1,-20,1000,0,0,-11,0,2521,282,57,940,-3,0,-1,-153,-149,2124,298,158,220,340,1,0,0,1,1,-0.07425263613615272,0.07386968382344529,6.283093868479544,11,2,-28,0,0,-11,0,3,0,-10,0,0,0,0,0
880,17135279,8,1,-28,0,0,0,4,3,0,0,0,1,1,-20,1000,0,0,-11,0,2521,282,57,940,-3,0,0,-157,-153,2122,302,158,230,341,1,0,0,1,1,-0.07429193399877697,0.07386851795312994,6.283093866108422,12,4,-28,0,0,-11,0,3,0,-11,0,0,0,0,0
884,17136278,8,3,-26,0,0,0,5,7,0,0,0,1,1,-20,1000,0,0,-11,0,2521,282,57,940,-3,-1,-1,-150,-154,2119,322,158,263,336,1,0,0,1,1,-0.074335400727071,0.07383105858758046,6.283110001172991,13,10,-26,0,0,-11,0,3,1,-10,0,0,0,0,0
888,17137277,3,3,-27,0,0,0,-6,9,0,0,0,1,1,-20,1000,0,0,-11,0,2521,282,57,940,-1,-1,-1,-149,-160,2115,332,158,200,270,1,0,0,1,1,-0.07436042245442216,0.07379195959744532,6.283126138580934,-3,12,-27,0,0,-11,0,1,1,-10,0,0,0,0,0
892,17138277,2,2,-26,0,0,0,-10,8,0,0,0,1,1,-20,1000,0,0,-11,0,2521,282,57,940,0,-1,0,-144,-159,2109,328,158,168,240,1,0,0,1,1,-0.07436522535885504,0.07374262341087223,6.283124839171431,-8,10,-26,0,0,-11,0,0,1,-11,0,0,0,0,0
896,17139276,0,2,-26,0,0,0,-18,3,0,0,0,1,1,-20,1000,0,0,-11,0,2521,282,57,940,0,-1,-1,-144,-161,2098,357,211,158,253,1,0,0,1,1,-0.07437856250191842,0.07369447282218229,6.283140976641589,-18,5,-26,0,0,-11,0,0,1,-10,0,0,0,0,0
900,17140278,-2,1,-26,0,0,0,-19,-1,0,0,0,1,1,-20,1000,0,0,-11,0,2521,282,57,940,1,0,0,-146,-158,2087,372,256,158,281,1,0,0,1,1,-0.07436758052279938,0.07367254893493402,6.283140977418993,-21,0,-26,0,0,-11,0,-1,0,-11,0,0,0,0,0
904,17141275,-1,1,-25,0,0,0,-13,-6,0,0,0,1,1,-20,1000,0,0,-11,0,2521,282,57,940,1,0,-2,-145,-158,2084,338,248,158,301,1,0,0,1,1,-0.07435984236106416,0.07364625622625191,6.283175778297651,-14,-5,-25,0,0,-11,0,-1,0,-9,0,0,0,0,0
908,17142274,0,-1,-25,0,0,0,-1,-5,0,0,0,1,1,-20,1000,0,0,-11,0,2518,282,57,940,0,1,-1,-142,-163,2082,279,189,158,301,1,0,0,1,1,-0.07438143662253775,0.07363141329165132,0.00000920735533949113,-1,-6,-25,0,0,-11,0,0,-1,-10,0,0,0,0,0
912,17143273,2,-1,-25,0,0,0,7,-8,0,0,0,1,1,-20,1000,0,0,-11,0,2518,-50,57,940,-1,1,-1,-141,-162,2077,234,159,158,316,1,0,0,1,1,-0.07441858315716451,0.07361516778837073,0.00002794422230056881,9,-9,-25,0,0,-11,0,1,-1,-10,0,0,0,0,0
916,17144273,4,1,-27,0,0,0,11,1,0,0,0,1,1,-20,1000,0,0,-11,0,2518,-50,57,940,-1,0,2,-138,-165,2075,292,158,237,352,1,0,0,1,1,-0.07445956377913861,0.07357842717714257,6.2831783506282,15,2,-27,0,0,-11,0,1,0,-13,0,0,0,0,0
920,17145272,2,1,-30,0,0,0,1,0,0,0,0,1,1,-20,1000,0,0,-11,0,2518,-50,57,940,0,0,3,-139,-166,2074,299,158,177,311,1,0,0,1,1,-0.0744843228667035,0.07354600972913125,6.2831260508092726,3,1,-30,0,0,-11,0,0,0,-14,0,0,0,0,0
924,17146273,1,1,-32,0,0,0,-4,7,0,0,0,1,1,-20,1000,0,0,-11,0,2518,-50,57,940,0,0,3,-141,-169,2074,342,158,180,291,1,0,0,1,1,-0.07451641382558664,0.07351889570117233,6.283073647797882,-3,8,-32,0,0,-11,0,0,0,-14,0,0,0,0,0
928,17147271,-2,4,-33,0,0,0,-10,11,0,0,0,1,1,-20,1000,0,0,-11,0,2518,-50,49,940,1,-1,3,-139,-169,2076,375,158,173,260,1,0,0,1,1,-0.074530423649897,0.07346936079586959,6.2830201017401395,-12,15,-33,0,0,-11,0,-1,1,-14,0,0,0,0,0
932,17148270,-3,3,-32,0,0,0,-10,5,0,0,0,1,1,-20,1000,0,0,-11,0,2518,-50,49,940,1,-1,0,-140,-166,2078,361,182,158,270,1,0,0,1,1,-0.07454014196552963,0.07341850120924627,6.283018803850949,-13,8,-32,0,0,-11,0,-1,1,-11,0,0,0,0,0
936,17149270,-3,1,-30,0,0,0,-13,-4,0,0,0,1,1,-19,1000,0,0,-11,0,2518,-50,49,940,2,0,-1,-142,-161,2082,365,247,158,310,1,0,0,1,1,-0.07452047184461603,0.07338834885007467,6.28303625767574,-16,-3,-30,0,0,-11,0,-2,0,-10,0,0,0,0,0
940,17150269,-4,-1,-27,0,0,0,-13,-5,0,0,0,1,1,-19,1000,0,0,-11,0,2518,-50,49,940,2,1,-2,-145,-157,2087,354,262,158,308,1,0,0,1,1,-0.07449137474228137,0.07338105273689279,6.283072428172266,-17,-6,-27,0,0,-11,0,-2,-1,-9,0,0,0,0,0
944,17151268,-4,-1,-23,0,0,0,-4,-6,0,0,1,1,1,-19,1000,0,0,-10,0,2518,-50,49,940,2,1,-4,-148,-158,2090,300,228,158,292,1,0,0,1,1,-0.07446688547311352,0.07337815371213456,6.283143467339199,-8,-7,-22,0,0,-10,0,-2,-1,-6,0,0,0,0,0
948,17152270,-1,-2,-21,0,0,0,9,-6,0,0,1,1,1,-19,1000,0,0,-10,0,2518,-50,49,940,1,1,-3,-146,-156,2086,214,158,159,288,1,0,0,1,1,-0.07445433456162215,0.07337247580418715,0.000011925081513375346,8,-8,-20,0,0,-10,0,-1,-1,-7,0,0,0,0,0
952,17153267,0,2,-20,0,0,0,9,4,0,0,1,1,1,-19,1000,0,0,-10,0,2518,-50,49,940,0,0,-2,-145,-162,2088,276,158,226,289,1,0,0,1,1,-0.07447226115491774,0.07334795609852934,0.00004672645074066395,9,6,-19,0,0,-10,0,0,0,-8,0,0,0,0,0
956,17154266,0,1,-21,0,0,0,2,4,0,0,1,1,1,-19,1000,0,0,-10,0,2518,-50,49,940,0,0,-1,-144,-161,2095,278,158,194,266,1,0,0,1,1,-0.07448504049413798,0.07332123629381292,0.00006416247784013507,2,5,-20,0,0,-10,0,0,0,-9,0,0,0,0,0
960,17155265,-3,3,-24,0,0,0,-6,14,0,0,1,1,1,-19,1000,0,0,-10,0,2518,-50,49,940,1,-1,1,-146,-164,2101,343,158,201,227,1,0,0,1,1,-0.07448397050646684,0.07328379116630317,0.00004542979805233216,-9,17,-23,0,0,-10,0,-1,1,-11,0,0,0,0,0
964,17156266,-5,4,-26,0,0,0,-6,11,0,0,1,1,1,-19,1000,0,0,-10,0,2518,-50,49,940,2,-1,1,-150,-158,2105,344,158,176,224,1,0,0,1,1,-0.07445008465047437,0.07325566739110821,0.000026657874760971367,-11,15,-25,0,0,-10,0,-2,1,-11,0,0,0,0,0
968,17157264,-4,3,-28,0,0,0,-3,8,0,0,1,1,1,-19,1000,0,0,-10,0,2518,-50,49,940,2,-1,2,-155,-153,2102,336,158,179,254,1,0,0,1,1,-0.07440361133730453,0.07324176844744083,6.283175831876209,-7,11,-27,0,0,-10,0,-2,1,-12,0,0,0,0,0
972,17158263,-3,5,-28,0,0,0,-1,3,0,0,1,1,1,-19,1000,0,0,-10,0,2518,-50,49,940,1,-1,1,-154,-150,2101,321,158,178,271,1,0,0,1,1,-0.0743689087559115,0.07322443581242154,6.283157096836491,-4,8,-27,0,0,-10,0,-1,1,-11,0,0,0,0,0
976,17159263,0,0,-28,0,0,0,9,-12,0,0,0,1,1,-19,1000,0,0,-10,0,2518,-50,49,940,0,0,1,-149,-148,2094,245,170,158,341,1,0,0,1,1,-0.07434831334058063,0.0732137307534389,6.283139643298962,9,-12,-28,0,0,-10,0,0,0,-11,0,0,0,0,0
980,17160265,3,-2,-28,0,0,0,11,-12,0,0,0,1,1,-19,1000,0,0,-10,0,2518,-50,49,940,-1,1,1,-150,-145,2096,226,158,158,349,1,0,0,1,1,-0.0743378140952931,0.0732225597176437,6.283123456481822,14,-14,-28,0,0,-10,0,1,-1,-11,0,0,0,0,0
984,17161261,2,0,-29,0,0,0,7,-3,0,0,0,1,1,-18,1000,0,0,-10,0,2518,-50,49,940,0,0,2,-147,-149,2100,278,158,184,328,1,0,0,1,1,-0.07431757087980395,0.07320738675415657,6.283088690516953,9,-3,-29,0,0,-10,0,0,0,-12,0,0,0,0,0
988,17162261,1,3,-29,0,0,0,14,5,0,0,0,1,1,-18,1000,0,0,-10,0,2520,-50,49,940,0,-1,1,-147,-148,2099,326,158,260,357,1,0,0,1,1,-0.07429644697854186,0.0731739399320653,6.28306993754898,15,8,-29,0,0,-10,0,0,1,-11,0,0,0,0,0
992,17163260,4,4,-27,0,0,0,19,8,0,0,0,1,1,-18,1000,0,0,-10,0,2520,134,49,940,-1,-1,-1,-148,-154,2098,337,158,321,390,1,0,0,1,1,-0.07430982841552691,0.07314062707990909,6.283086073591803,23,12,-27,0,0,-10,0,1,1,-9,0,0,0,0,0
996,17164259,2,5,-24,0,0,0,6,7,0,0,0,1,1,-18,1000,0,0,-10,0,2520,134,49,940,-1,-1,-2,-148,-145,2096,321,158,250,308,1,0,0,1,1,-0.07430344701592903,0.07310670214863464,6.283119642483073,8,12,-24,0,0,-10,0,1,1,-8,0,0,0,0,0
1000,17165259,-1,0,-23,0,0,0,-10,-6,0,0,0,1,1,-18,1000,0,0,-10,0,2520,134,49,940,1,0,-2,-154,-146,2099,311,235,158,289,1,0,0,1,1,-0.07426440062521523,0.0731039015196633,6.283154544695772,-11,-6,-23,0,0,-10,0,-1,0,-8,0,0,0,0,0
1004,17166258,-3,-1,-21,0,0,0,-20,-10,0,0,0,1,1,-18,1000,0,0,-10,0,2520,134,49,940,2,1,-3,-155,-140,2100,357,316,158,306,1,0,0,1,1,-0.07419535269226905,0.07311938820813972,0.000022834664062720833,-23,-11,-21,0,0,-10,0,-2,-1,-7,0,0,0,0,0
1008,17167257,-5,-3,-19,0,0,0,-18,-19,0,0,0,1,1,-18,1000,0,0,-10,0,2520,134,49,940,2,2,-3,-153,-143,2097,348,362,158,348,1,0,0,1,1,-0.07413443173738762,0.07314789036467823,0.00007772593690091867,-23,-22,-19,0,0,-10,0,-2,-2,-7,0,0,0,0,0
1012,17168259,-5,-3,-21,0,0,0,-15,-14,0,0,0,1,1,-18,1000,0,0,-10,0,2520,134,49,940,2,2,0,-152,-148,2100,344,331,158,334,1,0,0,1,1,-0.07408117740194323,0.07317731219516788,0.00008031973178557195,-20,-17,-21,0,0,-10,0,-2,-2,-10,0,0,0,0,0
1016,17169256,-5,0,-24,0,0,0,-11,1,0,0,0,1,1,-18,1000,0,0,-10,0,2520,134,49,940,2,0,2,-150,-153,2104,338,226,158,266,1,0,0,1,1,-0.07403666489428101,0.07316906597737341,0.00004551907205030403,-16,1,-24,0,0,-10,0,-2,0,-12,0,0,0,0,0
1020,17170255,-2,2,-28,0,0,0,1,9,0,0,0,1,1,-18,1000,0,0,-10,0,2520,134,49,940,1,0,3,-149,-158,2103,337,158,205,280,1,0,0,1,1,-0.07402019452548605,0.07315997139111903,6.283178522679071,-1,11,-28,0,0,-10,0,-1,0,-13,0,0,0,0,0
1024,17171254,3,3,-30,0,0,0,15,15,0,0,0,1,1,-18,1000,0,0,-10,0,2520,134,49,940,-1,-1,3,-151,-158,2103,378,158,323,379,1,0,0,1,1,-0.07403839750562664,0.07313828227334863,6.283124926043562,18,18,-30,0,0,-10,0,1,1,-13,0,0,0,0,0
1028,17172254,6,3,-29,0,0,0,29,11,0,0,0,1,1,-18,1000,0,0,-10,0,2520,134,49,940,-2,-1,1,-149,-156,2102,356,158,382,448,1,0,0,1,1,-0.07407197006558178,0.07310973039399307,6.283106178948974,35,14,-29,0,0,-10,0,2,1,-11,0,0,0,0,0
1032,17173254,7,1,-28,0,0,0,28,2,0,0,0,1,1,-18,1000,0,0,-10,0,2520,134,49,940,-3,0,1,-152,-146,2103,303,158,332,443,1,0,0,1,1,-0.0740996549811136,0.07310552263164088,6.283088724366626,35,3,-28,0,0,-10,0,3,0,-11,0,0,0,0,0
1036,17174253,5,0,-27,0,0,0,13,-3,0,0,0,1,1,-18,1000,0,0,-10,0,2520,134,49,940,-2,1,0,-152,-143,2104,266,158,224,364,1,0,0,1,1,-0.07410418649713543,0.07311724029881184,6.2830900153254206,18,-3,-27,0,0,-10,0,2,-1,-10,0,0,0,0,0
1040,17175252,3,0,-25,0,0,0,4,-7,0,0,0,1,1,-18,1000,0,0,-10,0,2520,134,49,940,-1,0,-1,-149,-142,2101,245,158,162,306,1,0,0,1,1,-0.07409083690542721,0.07310399951787687,6.283107445815012,7,-7,-25,0,0,-10,0,1,0,-9,0,0,0,0,0
1044,17176251,4,0,-24,0,0,0,2,-7,0,0,0,1,1,-18,1000,0,0,-10,0,2520,134,49,940,-1,0,-1,-146,-145,2095,239,160,158,299,1,0,0,1,1,-0.07408550707676514,0.07308499797138913,6.283124877378148,6,-7,-24,0,0,-10,0,1,0,-9,0,0,0,0,0
1048,17177251,3,0,-23,0,0,0,-6,-4,0,0,0,1,1,-18,1000,0,0,-10,0,2520,134,49,940,-1,0,-1,-145,-150,2088,277,188,158,284,1,0,0,1,1,-0.0740928404947429,0.0730649715425381,6.2831423279816665,-3,-4,-23,0,0,-10,0,1,0,-9,0,0,0,0,0
1052,17178250,1,0,-23,0,0,0,-17,-1,0,0,0,1,1,-18,1000,0,0,-10,0,2520,134,49,940,0,1,-1,-143,-150,2088,337,236,158,271,1,0,0,1,1,-0.0740828967478141,0.07305788550876029,6.283161055096612,-16,-1,-23,0,0,-10,0,0,-1,-9,0,0,0,0,0
1056,17179249,-3,2,-22,0,0,0,-23,9,0,0,0,1,1,-18,1000,0,0,-10,0,2520,134,49,940,2,-1,-1,-149,-160,2090,379,225,158,209,1,0,0,1,1,-0.07406039171956275,0.07302936038939124,6.283177197669025,-26,11,-22,0,0,-10,0,-2,1,-9,0,0,0,0,0
1060,17180249,-6,4,-20,0,0,0,-19,11,0,0,0,1,1,-18,1000,0,0,-10,0,2520,134,49,940,3,-1,-3,-156,-153,2088,367,207,158,184,1,0,0,1,1,-0.07400765986406853,0.07301454773391945,0.000042952161388498666,-25,15,-20,0,0,-10,0,-3,1,-7,0,0,0,0,0
1064,17181248,-1,0,-19,0,0,0,-10,-3,0,0,0,1,1,-18,1000,0,0,-10,0,2520,134,49,940,1,0,-3,-156,-154,2089,294,221,158,260,1,0,0,1,1,-0.07399211724902097,0.07301693795801008,0.0000952557610913729,-11,-3,-19,0,0,-10,0,-1,0,-7,0,0,0,0,0
